[  {
  "id": "0",
  "date": "06-04-2025",
  "name": "Jijel Municipality Pharmacies",
  "image": "https://raw.githubusercontent.com/a-ellah/iptv/refs/heads/main/pharmacies/jijel-1.jpg",
  "lat": "36.815110",
  "long": "5.764838",
  "map": "https://maps.app.goo.gl/S2hA4PdDd1syyuPp8",
  "phone": "213772808866",
  "mail": "aaaaaaaa@gmail.com",
  "address": "Rue des Frères Yacef Bachir et Rabah, Jijel",
  "categories": ["open", "jijel"],
  "languages": ["all", "jijel"]
},
{
  "id": "2",
  "date": "06-04-2025",
  "name": "Jijel Municipality Pharmacies",
  "image": "https://raw.githubusercontent.com/a-ellah/iptv/refs/heads/main/pharmacies/jijel-2.jpg",
  "lat": "36.815110",
  "long": "5.764838",
  "map": "https://maps.app.goo.gl/beqiVKrrrxipm5F58",
  "phone": "213772808866",
  "mail": "aaaaaaaa@gmail.com",
  "address": "Rue des Frères Yacef Bachir et Rabah, Jijel",
  "categories": ["open", "jijel"],
  "languages": ["all", "jijel"]
},
{
  "id": "3",
  "date": "06-04-2025",
  "name": "Jijel Municipality Pharmacies",
  "image": "https://raw.githubusercontent.com/a-ellah/iptv/refs/heads/main/pharmacies/jijel-3.jpg",
  "lat": "36.815110",
  "long": "5.764838",
  "map": "https://maps.app.goo.gl/beqiVKrrrxipm5F58",
  "phone": "213772808866",
  "mail": "aaaaaaaa@gmail.com",
  "address": "Rue des Frères Yacef Bachir et Rabah, Jijel",
  "categories": ["open", "jijel"],
  "languages": ["all", "jijel"]
},
{
  "id": "4",
  "date": "06-04-2025",
  "name": "Milia Municipality Pharmacies",
  "image": "https://raw.githubusercontent.com/a-ellah/iptv/refs/heads/main/pharmacies/milia-1.jpg",
  "lat": "36.815110",
  "long": "5.764838",
  "map": "https://maps.app.goo.gl/AB9o3hK8CGi6LqVaA",
  "phone": "213772808866",
  "mail": "aaaaaaaa@gmail.com",
  "address": "Rue des Frères Yacef Bachir et Rabah, Jijel",
  "categories": ["open", "milia"],
  "languages": ["all", "milia"]
},
{
  "id": "5",
  "date": "06-04-2025",
  "name": "Milia Municipality Pharmacies",
  "image": "https://raw.githubusercontent.com/a-ellah/iptv/refs/heads/main/pharmacies/milia-2.jpg",
  "lat": "36.815110",
  "long": "5.764838",
  "map": "https://maps.app.goo.gl/AB9o3hK8CGi6LqVaA",
  "phone": "213772808866",
  "mail": "aaaaaaaa@gmail.com",
  "address": "Rue des Frères Yacef Bachir et Rabah, Jijel",
  "categories": ["open", "milia"],
  "languages": ["all", "milia"]
},
{
  "id": "6",
  "date": "06-04-2025",
  "name": "Milia Municipality Pharmacies",
  "image": "https://raw.githubusercontent.com/a-ellah/iptv/refs/heads/main/pharmacies/milia-3.jpg",
  "lat": "36.815110",
  "long": "5.764838",
  "map": "https://maps.app.goo.gl/AB9o3hK8CGi6LqVaA",
  "phone": "213772808866",
  "mail": "aaaaaaaa@gmail.com",
  "address": "Rue des Frères Yacef Bachir et Rabah, Jijel",
  "categories": ["open", "milia"],
  "languages": ["all", "milia"]
},
{
  "id": "7",
  "date": "06-04-2025",
  "name": "Taher Municipality Pharmacies",
  "image": "https://raw.githubusercontent.com/a-ellah/iptv/refs/heads/main/pharmacies/taher-1.jpg",
  "lat": "36.815110",
  "long": "5.764838",
  "map": "https://maps.app.goo.gl/adM4QZq2CA5y2Lx69",
  "phone": "213772808866",
  "mail": "aaaaaaaa@gmail.com",
  "address": "Rue des Frères Yacef Bachir et Rabah, Jijel",
  "categories": ["open", "taher"],
  "languages": ["all", "taher"]
},
{
  "id": "8",
  "date": "06-04-2025",
  "name": "Taher Municipality Pharmacies",
  "image": "https://raw.githubusercontent.com/a-ellah/iptv/refs/heads/main/pharmacies/taher-2.jpg",
  "lat": "36.815110",
  "long": "5.764838",
  "map": "https://maps.app.goo.gl/adM4QZq2CA5y2Lx69",
  "phone": "213772808866",
  "mail": "aaaaaaaa@gmail.com",
  "address": "Rue des Frères Yacef Bachir et Rabah, Jijel",
  "categories": ["open", "taher"],
  "languages": ["all", "taher"]
},
{
  "id": "9",
  "date": "06-04-2025",
  "name": "Taher Municipality Pharmacies",
  "image": "https://raw.githubusercontent.com/a-ellah/iptv/refs/heads/main/pharmacies/taher-3.jpg",
  "lat": "36.815110",
  "long": "5.764838",
  "map": "https://maps.app.goo.gl/adM4QZq2CA5y2Lx69",
  "phone": "213772808866",
  "mail": "aaaaaaaa@gmail.com",
  "address": "Rue des Frères Yacef Bachir et Rabah, Jijel",
  "categories": ["open", "taher"],
  "languages": ["all", "taher"]
},
{
  "id": "0",
  "date": "06-04-2025",
  "name": "Jijel Municipality Pharmacies",
  "image": "https://raw.githubusercontent.com/a-ellah/iptv/refs/heads/main/pharmacies/jijel-1.jpg",
  "lat": "36.815110",
  "long": "5.764838",
  "map": "https://maps.app.goo.gl/S2hA4PdDd1syyuPp8",
  "phone": "213772808866",
  "mail": "aaaaaaaa@gmail.com",
  "address": "Rue des Frères Yacef Bachir et Rabah, Jijel",
  "categories": ["open", "jijel"],
  "languages": ["all", "jijel"]
},
{
  "id": "2",
  "date": "06-04-2025",
  "name": "Jijel Municipality Pharmacies",
  "image": "https://raw.githubusercontent.com/a-ellah/iptv/refs/heads/main/pharmacies/jijel-2.jpg",
  "lat": "36.815110",
  "long": "5.764838",
  "map": "https://maps.app.goo.gl/beqiVKrrrxipm5F58",
  "phone": "213772808866",
  "mail": "aaaaaaaa@gmail.com",
  "address": "Rue des Frères Yacef Bachir et Rabah, Jijel",
  "categories": ["open", "jijel"],
  "languages": ["all", "jijel"]
},
{
  "id": "3",
  "date": "06-04-2025",
  "name": "Jijel Municipality Pharmacies",
  "image": "https://raw.githubusercontent.com/a-ellah/iptv/refs/heads/main/pharmacies/jijel-3.jpg",
  "lat": "36.815110",
  "long": "5.764838",
  "map": "https://maps.app.goo.gl/beqiVKrrrxipm5F58",
  "phone": "213772808866",
  "mail": "aaaaaaaa@gmail.com",
  "address": "Rue des Frères Yacef Bachir et Rabah, Jijel",
  "categories": ["open", "jijel"],
  "languages": ["all", "jijel"]
},
{
  "id": "4",
  "date": "06-04-2025",
  "name": "Milia Municipality Pharmacies",
  "image": "https://raw.githubusercontent.com/a-ellah/iptv/refs/heads/main/pharmacies/milia-1.jpg",
  "lat": "36.815110",
  "long": "5.764838",
  "map": "https://maps.app.goo.gl/AB9o3hK8CGi6LqVaA",
  "phone": "213772808866",
  "mail": "aaaaaaaa@gmail.com",
  "address": "Rue des Frères Yacef Bachir et Rabah, Jijel",
  "categories": ["open", "milia"],
  "languages": ["all", "milia"]
},
{
  "id": "5",
  "date": "06-04-2025",
  "name": "Milia Municipality Pharmacies",
  "image": "https://raw.githubusercontent.com/a-ellah/iptv/refs/heads/main/pharmacies/milia-2.jpg",
  "lat": "36.815110",
  "long": "5.764838",
  "map": "https://maps.app.goo.gl/AB9o3hK8CGi6LqVaA",
  "phone": "213772808866",
  "mail": "aaaaaaaa@gmail.com",
  "address": "Rue des Frères Yacef Bachir et Rabah, Jijel",
  "categories": ["open", "milia"],
  "languages": ["all", "milia"]
},
{
  "id": "6",
  "date": "06-04-2025",
  "name": "Milia Municipality Pharmacies",
  "image": "https://raw.githubusercontent.com/a-ellah/iptv/refs/heads/main/pharmacies/milia-3.jpg",
  "lat": "36.815110",
  "long": "5.764838",
  "map": "https://maps.app.goo.gl/AB9o3hK8CGi6LqVaA",
  "phone": "213772808866",
  "mail": "aaaaaaaa@gmail.com",
  "address": "Rue des Frères Yacef Bachir et Rabah, Jijel",
  "categories": ["open", "milia"],
  "languages": ["all", "milia"]
},
{
  "id": "7",
  "date": "06-04-2025",
  "name": "Taher Municipality Pharmacies",
  "image": "https://raw.githubusercontent.com/a-ellah/iptv/refs/heads/main/pharmacies/taher-1.jpg",
  "lat": "36.815110",
  "long": "5.764838",
  "map": "https://maps.app.goo.gl/adM4QZq2CA5y2Lx69",
  "phone": "213772808866",
  "mail": "aaaaaaaa@gmail.com",
  "address": "Rue des Frères Yacef Bachir et Rabah, Jijel",
  "categories": ["open", "taher"],
  "languages": ["all", "taher"]
},
{
  "id": "8",
  "date": "06-04-2025",
  "name": "Taher Municipality Pharmacies",
  "image": "https://raw.githubusercontent.com/a-ellah/iptv/refs/heads/main/pharmacies/taher-2.jpg",
  "lat": "36.815110",
  "long": "5.764838",
  "map": "https://maps.app.goo.gl/adM4QZq2CA5y2Lx69",
  "phone": "213772808866",
  "mail": "aaaaaaaa@gmail.com",
  "address": "Rue des Frères Yacef Bachir et Rabah, Jijel",
  "categories": ["open", "taher"],
  "languages": ["all", "taher"]
},
{
  "id": "9",
  "date": "06-04-2025",
  "name": "Taher Municipality Pharmacies",
  "image": "https://raw.githubusercontent.com/a-ellah/iptv/refs/heads/main/pharmacies/taher-3.jpg",
  "lat": "36.815110",
  "long": "5.764838",
  "map": "https://maps.app.goo.gl/adM4QZq2CA5y2Lx69",
  "phone": "213772808866",
  "mail": "aaaaaaaa@gmail.com",
  "address": "Rue des Frères Yacef Bachir et Rabah, Jijel",
  "categories": ["open", "taher"],
  "languages": ["all", "taher"]
},
{
  "id": "20",
  "date": "06-04-2025",
  "name": "Taher Municipality Pharmacies",
  "image": "https://raw.githubusercontent.com/a-ellah/iptv/refs/heads/main/pharmacies/taher-3.jpg",
  "lat": "36.815110",
  "long": "5.764838",
  "map": "https://maps.app.goo.gl/adM4QZq2CA5y2Lx69",
  "phone": "213772808866",
  "mail": "aaaaaaaa@gmail.com",
  "address": "Rue des Frères Yacef Bachir et Rabah, Jijel",
  "categories": ["open", "jijel"],
  "languages": ["all", "jijel"]
},
{
  "id": "21",
  "date": "06-04-2025",
  "name": "Taher Municipality Pharmacies",
  "image": "https://raw.githubusercontent.com/a-ellah/iptv/refs/heads/main/pharmacies/taher-3.jpg",
  "lat": "36.815110",
  "long": "5.764838",
  "map": "https://maps.app.goo.gl/adM4QZq2CA5y2Lx69",
  "phone": "213772808866",
  "mail": "aaaaaaaa@gmail.com",
  "address": "Rue des Frères Yacef Bachir et Rabah, Jijel",
  "categories": ["open", "taher"],
  "languages": ["all", "taher"]
},
{
  "id": "22",
  "date": "06-04-2025",
  "name": "Taher Municipality Pharmacies",
  "image": "https://raw.githubusercontent.com/a-ellah/iptv/refs/heads/main/pharmacies/taher-3.jpg",
  "lat": "36.815110",
  "long": "5.764838",
  "map": "https://maps.app.goo.gl/adM4QZq2CA5y2Lx69",
  "phone": "213772808866",
  "mail": "aaaaaaaa@gmail.com",
  "address": "Rue des Frères Yacef Bachir et Rabah, Jijel",
  "categories": ["open", "milia"],
  "languages": ["all", "milia"]
},

  {
    "id": "open",
    "name": " Open",
    "coor": "36.81503866535423, 5.7647399597348",
    "map": "https://maps.app.goo.gl/6c1GbM3L5EMnyjsB8"
  },
  {
    "id": "taher",
    "name": "Taher",
    "coor": "36.7704805137687, 5.897717962638273",
    "map": "https://maps.app.goo.gl/o89cAmYNLH4wZ16Q6"
  },
  {
    "id": "jijel",
    "name": "Jijel",
    "coor": "36.807336339140484, 5.779170487965745",
    "map": "https://maps.app.goo.gl/N1Hs9jYGZ8NB6zZP7"
  },
  {
    "id": "milia",
    "name": "Milia",
    "coor": "36.75268073386434, 6.266794606425286",
    "map": "https://maps.app.goo.gl/UVuQVGJorYUE87hx9"
  }
]
