[
  {
    "id": "1",
    "date": "30-12-2024",
    "name": "Jijel Municipality Pharmacies",
    "image": "https://raw.githubusercontent.com/a-ellah/iptv/refs/heads/main/pharmacies/jijel-1.jpg",
    "lat": "36.815110",
    "long": "5.764838",
    "map": "https://maps.app.goo.gl/S2hA4PdDd1syyuPp8",
    "phone": "034471656",
    "mail": "aaaaaaaa@gmail.com",
    "address": "Rue des Frères Yacef Bachir et Rabah, Jijel",
    "categories": ["open", "jijel"],
    "languages": ["all", "jijel"]
  },
  {
    "id": "2",
    "date": "30-12-2024",
    "name": "Jijel Municipality Pharmacies",
    "image": "https://raw.githubusercontent.com/a-ellah/iptv/refs/heads/main/pharmacies/jijel-2.jpg",
    "lat": "36.815110",
    "long": "5.764838",
    "map": "https://maps.app.goo.gl/beqiVKrrrxipm5F58",
    "phone": "034471656",
    "mail": "aaaaaaaa@gmail.com",
    "address": "Rue des Frères Yacef Bachir et Rabah, Jijel",
    "categories": ["open", "jijel"],
    "languages": ["all", "jijel"]
  },
  {
    "id": "3",
    "date": "30-12-2024",
    "name": "Jijel Municipality Pharmacies",
    "image": "https://raw.githubusercontent.com/a-ellah/iptv/refs/heads/main/pharmacies/jijel-3.jpg",
    "lat": "36.815110",
    "long": "5.764838",
    "map": "https://maps.app.goo.gl/beqiVKrrrxipm5F58",
    "phone": "034471656",
    "mail": "aaaaaaaa@gmail.com",
    "address": "Rue des Frères Yacef Bachir et Rabah, Jijel",
    "categories": ["open", "jijel"],
    "languages": ["all", "jijel"]
  },
  {
    "id": "4",
    "date": "30-12-2024",
    "name": "Milia Municipality Pharmacies",
    "image": "https://raw.githubusercontent.com/a-ellah/iptv/refs/heads/main/pharmacies/milia-1.jpg",
    "lat": "36.815110",
    "long": "5.764838",
    "map": "https://maps.app.goo.gl/AB9o3hK8CGi6LqVaA",
    "phone": "034471656",
    "mail": "aaaaaaaa@gmail.com",
    "address": "Rue des Frères Yacef Bachir et Rabah, Jijel",
    "categories": ["open", "milia"],
    "languages": ["all", "milia"]
  },
  {
    "id": "5",
    "date": "30-12-2024",
    "name": "Milia Municipality Pharmacies",
    "image": "https://raw.githubusercontent.com/a-ellah/iptv/refs/heads/main/pharmacies/milia-2.jpg",
    "lat": "36.815110",
    "long": "5.764838",
    "map": "https://maps.app.goo.gl/AB9o3hK8CGi6LqVaA",
    "phone": "034471656",
    "mail": "aaaaaaaa@gmail.com",
    "address": "Rue des Frères Yacef Bachir et Rabah, Jijel",
    "categories": ["open", "milia"],
    "languages": ["all", "milia"]
  },
  {
    "id": "6",
    "date": "30-12-2024",
    "name": "Milia Municipality Pharmacies",
    "image": "https://raw.githubusercontent.com/a-ellah/iptv/refs/heads/main/pharmacies/milia-3.jpg",
    "lat": "36.815110",
    "long": "5.764838",
    "map": "https://maps.app.goo.gl/AB9o3hK8CGi6LqVaA",
    "phone": "034471656",
    "mail": "aaaaaaaa@gmail.com",
    "address": "Rue des Frères Yacef Bachir et Rabah, Jijel",
    "categories": ["open", "milia"],
    "languages": ["all", "milia"]
  },
  {
    "id": "7",
    "date": "30-12-2024",
    "name": "Taher Municipality Pharmacies",
    "image": "https://raw.githubusercontent.com/a-ellah/iptv/refs/heads/main/pharmacies/taher-1.jpg",
    "lat": "36.815110",
    "long": "5.764838",
    "map": "https://maps.app.goo.gl/adM4QZq2CA5y2Lx69",
    "phone": "034471656",
    "mail": "aaaaaaaa@gmail.com",
    "address": "Rue des Frères Yacef Bachir et Rabah, Jijel",
    "categories": ["open", "taher"],
    "languages": ["all", "taher"]
  },
  {
    "id": "8",
    "date": "30-12-2024",
    "name": "Taher Municipality Pharmacies",
    "image": "https://raw.githubusercontent.com/a-ellah/iptv/refs/heads/main/pharmacies/taher-2.jpg",
    "lat": "36.815110",
    "long": "5.764838",
    "map": "https://maps.app.goo.gl/adM4QZq2CA5y2Lx69",
    "phone": "034471656",
    "mail": "aaaaaaaa@gmail.com",
    "address": "Rue des Frères Yacef Bachir et Rabah, Jijel",
    "categories": ["open", "taher"],
    "languages": ["all", "taher"]
  },
  {
    "id": "9",
    "date": "30-12-2024",
    "name": "Taher Municipality Pharmacies",
    "image": "https://raw.githubusercontent.com/a-ellah/iptv/refs/heads/main/pharmacies/taher-3.jpg",
    "lat": "36.815110",
    "long": "5.764838",
    "map": "https://maps.app.goo.gl/adM4QZq2CA5y2Lx69",
    "phone": "034471656",
    "mail": "aaaaaaaa@gmail.com",
    "address": "Rue des Frères Yacef Bachir et Rabah, Jijel",
    "categories": ["open", "taher"],
    "languages": ["all", "taher"]
  },
  {
    "id": "1",
    "date": "30-12-2024",
    "name": "Jijel Municipality Pharmacies",
    "image": "https://raw.githubusercontent.com/a-ellah/iptv/refs/heads/main/pharmacies/jijel-1.jpg",
    "lat": "36.815110",
    "long": "5.764838",
    "map": "https://maps.app.goo.gl/S2hA4PdDd1syyuPp8",
    "phone": "034471656",
    "mail": "aaaaaaaa@gmail.com",
    "address": "Rue des Frères Yacef Bachir et Rabah, Jijel",
    "categories": ["open", "jijel"],
    "languages": ["all", "jijel"]
  },
  {
    "id": "2",
    "date": "30-12-2024",
    "name": "Jijel Municipality Pharmacies",
    "image": "https://raw.githubusercontent.com/a-ellah/iptv/refs/heads/main/pharmacies/jijel-2.jpg",
    "lat": "36.815110",
    "long": "5.764838",
    "map": "https://maps.app.goo.gl/beqiVKrrrxipm5F58",
    "phone": "034471656",
    "mail": "aaaaaaaa@gmail.com",
    "address": "Rue des Frères Yacef Bachir et Rabah, Jijel",
    "categories": ["open", "jijel"],
    "languages": ["all", "jijel"]
  },
  {
    "id": "3",
    "date": "30-12-2024",
    "name": "Jijel Municipality Pharmacies",
    "image": "https://raw.githubusercontent.com/a-ellah/iptv/refs/heads/main/pharmacies/jijel-3.jpg",
    "lat": "36.815110",
    "long": "5.764838",
    "map": "https://maps.app.goo.gl/beqiVKrrrxipm5F58",
    "phone": "034471656",
    "mail": "aaaaaaaa@gmail.com",
    "address": "Rue des Frères Yacef Bachir et Rabah, Jijel",
    "categories": ["open", "jijel"],
    "languages": ["all", "jijel"]
  },
  {
    "id": "4",
    "date": "30-12-2024",
    "name": "Milia Municipality Pharmacies",
    "image": "https://raw.githubusercontent.com/a-ellah/iptv/refs/heads/main/pharmacies/milia-1.jpg",
    "lat": "36.815110",
    "long": "5.764838",
    "map": "https://maps.app.goo.gl/AB9o3hK8CGi6LqVaA",
    "phone": "034471656",
    "mail": "aaaaaaaa@gmail.com",
    "address": "Rue des Frères Yacef Bachir et Rabah, Jijel",
    "categories": ["open", "milia"],
    "languages": ["all", "milia"]
  },
  {
    "id": "5",
    "date": "30-12-2024",
    "name": "Milia Municipality Pharmacies",
    "image": "https://raw.githubusercontent.com/a-ellah/iptv/refs/heads/main/pharmacies/milia-2.jpg",
    "lat": "36.815110",
    "long": "5.764838",
    "map": "https://maps.app.goo.gl/AB9o3hK8CGi6LqVaA",
    "phone": "034471656",
    "mail": "aaaaaaaa@gmail.com",
    "address": "Rue des Frères Yacef Bachir et Rabah, Jijel",
    "categories": ["open", "milia"],
    "languages": ["all", "milia"]
  },
  {
    "id": "6",
    "date": "30-12-2024",
    "name": "Milia Municipality Pharmacies",
    "image": "https://raw.githubusercontent.com/a-ellah/iptv/refs/heads/main/pharmacies/milia-3.jpg",
    "lat": "36.815110",
    "long": "5.764838",
    "map": "https://maps.app.goo.gl/AB9o3hK8CGi6LqVaA",
    "phone": "034471656",
    "mail": "aaaaaaaa@gmail.com",
    "address": "Rue des Frères Yacef Bachir et Rabah, Jijel",
    "categories": ["open", "milia"],
    "languages": ["all", "milia"]
  },
  {
    "id": "7",
    "date": "30-12-2024",
    "name": "Taher Municipality Pharmacies",
    "image": "https://raw.githubusercontent.com/a-ellah/iptv/refs/heads/main/pharmacies/taher-1.jpg",
    "lat": "36.815110",
    "long": "5.764838",
    "map": "https://maps.app.goo.gl/adM4QZq2CA5y2Lx69",
    "phone": "034471656",
    "mail": "aaaaaaaa@gmail.com",
    "address": "Rue des Frères Yacef Bachir et Rabah, Jijel",
    "categories": ["open", "taher"],
    "languages": ["all", "taher"]
  },
  {
    "id": "8",
    "date": "30-12-2024",
    "name": "Taher Municipality Pharmacies",
    "image": "https://raw.githubusercontent.com/a-ellah/iptv/refs/heads/main/pharmacies/taher-2.jpg",
    "lat": "36.815110",
    "long": "5.764838",
    "map": "https://maps.app.goo.gl/adM4QZq2CA5y2Lx69",
    "phone": "034471656",
    "mail": "aaaaaaaa@gmail.com",
    "address": "Rue des Frères Yacef Bachir et Rabah, Jijel",
    "categories": ["open", "taher"],
    "languages": ["all", "taher"]
  },
  {
    "id": "9",
    "date": "30-12-2024",
    "name": "Taher Municipality Pharmacies",
    "image": "https://raw.githubusercontent.com/a-ellah/iptv/refs/heads/main/pharmacies/taher-3.jpg",
    "lat": "36.815110",
    "long": "5.764838",
    "map": "https://maps.app.goo.gl/adM4QZq2CA5y2Lx69",
    "phone": "034471656",
    "mail": "aaaaaaaa@gmail.com",
    "address": "Rue des Frères Yacef Bachir et Rabah, Jijel",
    "categories": ["open", "taher"],
    "languages": ["all", "taher"]
  }
]
